[{
		"name": "Park City",
		"state": "Utah",
		"img" : "http://www.equityresidences.com/wp-content/uploads/2013/12/IMG_0863_v21.jpg",
		"latitude":"40.6461",
		"longitude": "-111.4980",
		"trails": {
			"number": 300,
			"open": 293,
			"closed": 7
		},
		"conditions": "partly cloudy",
		"nightlife": {
			"bars": [{
				"name": "High West Distillery and Saloon",
				"type": "whiskey distillery",
				"address": "703 Park Ave, Park City, UT"
			}, {
				"name": "The Cabin",
				"type": "live music",
				"address": "825 Main St, Park City, UT"
			}, {
				"name": "Downstairs",
				"type": "dance club",
				"address": "625 Main St, Park City, UT"
			}],

			"restaurants": [{
				"name": "Riverhorse on Main",
				"type": "modern eclectic",
				"address": "540 Main St, Park City, UT"
			}, {
				"name": "Yuki Yama Sushi",
				"type": "sushi",
				"address": "586 Main St, Park City, UT"
			}, {
				"name": "501 On Main",
				"type": "seasonal/vegetarian",
				"address": "501 Main St, Park City, UT"
			}]
		}

	},


	{
		"name": "Snowbird",
		"state": "Utah",
		"img": "http://images.fineartamerica.com/images-medium-large-5/spectacular-view-to-the-mountains-and-blue-ski-tram-at-snowbird-ski-resort-in-utah-anton-oparin.jpg",
		"latitude":"40.5818",
		"longitude": "-111.6552",
		"trails": {
			"number": 169,
			"open": 144,
			"closed": 25
		},
		"conditions": "snow",
		"nightlife": {
			"bars": [{
				"name": "The Tram Club",
				"type": "live music",
				"address": "9385 S # C01, Snowbird Center Trail"
			}, {
				"name": "The Aerie",
				"type": "modern american gastropub",
				"address": "The Cliff Lodge, Level 10"
			}, {
				"name": "El Chanate",
				"type": "mexican",
				"address": "The Cliff Lodge, Level A"
			}],

			"restaurants": [{
				"name": "The Aerie",
				"type": "modern american gastropub",
				"address": "The Cliff Lodge, Level 10"
			}, {
				"name": "Wildflower",
				"type": "italian",
				"address": "The Iron Blosam Lodge, Level 3"
			}, {
				"name": "El Chanate",
				"type": "mexican",
				"address": "The Cliff Lodge, Level A"
			}]
		}

	}
]